[
  {
    "id": "1",
    "latitude_rest": "-15.873971",
    "longitude_rest": "-47.969526 ",
    "latitude_user": -15.87397,
    "longitude_user": -47.86952,
    "name": "Sabor e Arte",
    "lactose_rest": false,
    "gluten_rest": false,
    "vegetariano_rest": true,
    "porco_rest": true,
    "lactose_user": false,
    "gluten_user": false,
    "vegetariano_user": true,
    "porco_user": true,
    "cardapio": "http",
    "recomendado": true
  },
  {
    "id": "2",
    "latitude_rest": "-15.783226",
    "longitude_rest": "-47.875997 ",
    "latitude_user": -15.87397,
    "longitude_user": -47.86952,
    "name": "Alimentação Saudável",
    "lactose_rest": true,
    "gluten_rest": false,
    "vegetariano_rest": false,
    "porco_rest": true,
    "lactose_user": true,
    "gluten_user": false,
    "vegetariano_user": false,
    "porco_user": true,
    "cardapio": "http",
    "recomendado": true
  },
  {
    "id": "3",
    "latitude_rest": "-15.808471",
    "longitude_rest": "-47.991086 ",
    "latitude_user": -15.87397,
    "longitude_user": -47.86952,
    "name": "O Sabor do Norte",
    "lactose_rest": false,
    "gluten_rest": false,
    "vegetariano_rest": false,
    "porco_rest": true,
    "lactose_user": false,
    "gluten_user": false,
    "vegetariano_user": false,
    "porco_user": true,
    "cardapio": "http",
    "recomendado": true
  },
  {
    "id": "4",
    "latitude_rest": "-16.023459",
    "longitude_rest": "-48.054171 ",
    "latitude_user": -15.87397,
    "longitude_user": -47.86952,
    "name": "Restaurante do Chef",
    "lactose_rest": true,
    "gluten_rest": false,
    "vegetariano_rest": true,
    "porco_rest": true,
    "lactose_user": true,
    "gluten_user": false,
    "vegetariano_user": true,
    "porco_user": true,
    "cardapio": "http",
    "recomendado": true
  },
  {
    "id": "5",
    "latitude_rest": "-15.636280",
    "longitude_rest": "-47.673708 ",
    "latitude_user": -15.87397,
    "longitude_user": -47.86952,
    "name": "Delícias da Vovó",
    "lactose_rest": true,
    "gluten_rest": false,
    "vegetariano_rest": true,
    "porco_rest": false,
    "lactose_user": true,
    "gluten_user": false,
    "vegetariano_user": true,
    "porco_user": false,
    "cardapio": "http",
    "recomendado": true
  },
  {
    "id": "6",
    "latitude_rest": "-15.845039",
    "longitude_rest": "-48.128268 ",
    "latitude_user": -15.87397,
    "longitude_user": -47.86952,
    "name": "Comida Caseira",
    "lactose_rest": true,
    "gluten_rest": false,
    "vegetariano_rest": false,
    "porco_rest": true,
    "lactose_user": true,
    "gluten_user": false,
    "vegetariano_user": false,
    "porco_user": true,
    "cardapio": "http",
    "recomendado": true
  },
  {
    "id": "7",
    "latitude_rest": "-16.027354",
    "longitude_rest": "-48.031152 ",
    "latitude_user": -15.87397,
    "longitude_user": -47.86952,
    "name": "Estação do Sabor",
    "lactose_rest": true,
    "gluten_rest": false,
    "vegetariano_rest": true,
    "porco_rest": true,
    "lactose_user": true,
    "gluten_user": false,
    "vegetariano_user": true,
    "porco_user": true,
    "cardapio": "http",
    "recomendado": true
  },
  {
    "id": "8",
    "latitude_rest": "-15.636059",
    "longitude_rest": "-47.854356 ",
    "latitude_user": -15.87397,
    "longitude_user": -47.86952,
    "name": "Cozinha Criativa",
    "lactose_rest": false,
    "gluten_rest": false,
    "vegetariano_rest": true,
    "porco_rest": true,
    "lactose_user": false,
    "gluten_user": false,
    "vegetariano_user": true,
    "porco_user": true,
    "cardapio": "http",
    "recomendado": true
  },
  {
    "id": "9",
    "latitude_rest": "-15.806064",
    "longitude_rest": "-48.100280 ",
    "latitude_user": -15.87397,
    "longitude_user": -47.86952,
    "name": "Cantinho da Comida",
    "lactose_rest": true,
    "gluten_rest": false,
    "vegetariano_rest": false,
    "porco_rest": false,
    "lactose_user": true,
    "gluten_user": false,
    "vegetariano_user": false,
    "porco_user": false,
    "cardapio": "http",
    "recomendado": false
  },
  {
    "id": "10",
    "latitude_rest": "-15.643451",
    "longitude_rest": "-47.785067 ",
    "latitude_user": -15.87397,
    "longitude_user": -47.86952,
    "name": "Sabores da Terra",
    "lactose_rest": true,
    "gluten_rest": true,
    "vegetariano_rest": true,
    "porco_rest": true,
    "lactose_user": true,
    "gluten_user": true,
    "vegetariano_user": true,
    "porco_user": true,
    "cardapio": "http",
    "recomendado": false
  },
  {
    "id": "11",
    "latitude_rest": "-15.672596",
    "longitude_rest": "-47.648157 ",
    "latitude_user": -15.87397,
    "longitude_user": -47.86952,
    "name": "Gosto Brasileiro",
    "lactose_rest": false,
    "gluten_rest": false,
    "vegetariano_rest": false,
    "porco_rest": true,
    "lactose_user": false,
    "gluten_user": false,
    "vegetariano_user": false,
    "porco_user": true,
    "cardapio": "http",
    "recomendado": false
  },
  {
    "id": "12",
    "latitude_rest": "-15.840657",
    "longitude_rest": "-48.051966 ",
    "latitude_user": -15.87397,
    "longitude_user": -47.86952,
    "name": "Tempero da Casa",
    "lactose_rest": true,
    "gluten_rest": false,
    "vegetariano_rest": false,
    "porco_rest": true,
    "lactose_user": true,
    "gluten_user": false,
    "vegetariano_user": false,
    "porco_user": true,
    "cardapio": "http",
    "recomendado": false
  },
  {
    "id": "13",
    "latitude_rest": "-16.012628",
    "longitude_rest": "-48.068955 ",
    "latitude_user": -15.87397,
    "longitude_user": -47.86952,
    "name": "Refeições Saudáveis",
    "lactose_rest": true,
    "gluten_rest": false,
    "vegetariano_rest": true,
    "porco_rest": true,
    "lactose_user": true,
    "gluten_user": false,
    "vegetariano_user": true,
    "porco_user": true,
    "cardapio": "http",
    "recomendado": false
  },
  {
    "id": "14",
    "latitude_rest": "-15.868329",
    "longitude_rest": "-48.019655 ",
    "latitude_user": -15.87397,
    "longitude_user": -47.86952,
    "name": "Delícias do Mar",
    "lactose_rest": false,
    "gluten_rest": false,
    "vegetariano_rest": true,
    "porco_rest": true,
    "lactose_user": false,
    "gluten_user": false,
    "vegetariano_user": true,
    "porco_user": true,
    "cardapio": "http",
    "recomendado": false
  },
  {
    "id": "15",
    "latitude_rest": "-16.026380",
    "longitude_rest": "-48.053227 ",
    "latitude_user": -15.87397,
    "longitude_user": -47.86952,
    "name": "Restaurante Árabe",
    "lactose_rest": false,
    "gluten_rest": false,
    "vegetariano_rest": true,
    "porco_rest": true,
    "lactose_user": false,
    "gluten_user": false,
    "vegetariano_user": true,
    "porco_user": true,
    "cardapio": "http",
    "recomendado": false
  },
  {
    "id": "16",
    "latitude_rest": "-15.841629",
    "longitude_rest": "-48.109975 ",
    "latitude_user": -15.87397,
    "longitude_user": -47.86952,
    "name": "Grelhados da Casa",
    "lactose_rest": true,
    "gluten_rest": true,
    "vegetariano_rest": false,
    "porco_rest": true,
    "lactose_user": true,
    "gluten_user": true,
    "vegetariano_user": false,
    "porco_user": true,
    "cardapio": "http",
    "recomendado": false
  },
  {
    "id": "17",
    "latitude_rest": "-15.893186",
    "longitude_rest": "-47.783901 ",
    "latitude_user": -15.87397,
    "longitude_user": -47.86952,
    "name": "Sabor do Oriente",
    "lactose_rest": false,
    "gluten_rest": false,
    "vegetariano_rest": true,
    "porco_rest": true,
    "lactose_user": false,
    "gluten_user": false,
    "vegetariano_user": true,
    "porco_user": true,
    "cardapio": "http",
    "recomendado": false
  },
  {
    "id": "18",
    "latitude_rest": "-15.801656",
    "longitude_rest": "-48.058687 ",
    "latitude_user": -15.87397,
    "longitude_user": -47.86952,
    "name": "Cozinha da Vovó",
    "lactose_rest": true,
    "gluten_rest": false,
    "vegetariano_rest": true,
    "porco_rest": true,
    "lactose_user": true,
    "gluten_user": false,
    "vegetariano_user": true,
    "porco_user": true,
    "cardapio": "http",
    "recomendado": false
  },
  {
    "id": "19",
    "latitude_rest": "-15.884244",
    "longitude_rest": "-48.098429 ",
    "latitude_user": -15.87397,
    "longitude_user": -47.86952,
    "name": "Comida Nordestina",
    "lactose_rest": true,
    "gluten_rest": false,
    "vegetariano_rest": false,
    "porco_rest": false,
    "lactose_user": true,
    "gluten_user": false,
    "vegetariano_user": false,
    "porco_user": false,
    "cardapio": "http",
    "recomendado": false
  },
  {
    "id": "20",
    "latitude_rest": "-15.864800",
    "longitude_rest": "-48.027617 ",
    "latitude_user": -15.87397,
    "longitude_user": -47.86952,
    "name": "Restaurante do Pescador",
    "lactose_rest": false,
    "gluten_rest": false,
    "vegetariano_rest": false,
    "porco_rest": true,
    "lactose_user": false,
    "gluten_user": false,
    "vegetariano_user": false,
    "porco_user": true,
    "cardapio": "http",
    "recomendado": false
  },
  {
    "id": "21",
    "latitude_rest": "-15.797745",
    "longitude_rest": "-47.935761 ",
    "latitude_user": -15.87397,
    "longitude_user": -47.86952,
    "name": "Pratos Naturais",
    "lactose_rest": false,
    "gluten_rest": false,
    "vegetariano_rest": false,
    "porco_rest": true,
    "lactose_user": false,
    "gluten_user": false,
    "vegetariano_user": false,
    "porco_user": true,
    "cardapio": "http",
    "recomendado": false
  },
  {
    "id": "22",
    "latitude_rest": "-15.791219",
    "longitude_rest": "-48.008606 ",
    "latitude_user": -15.87397,
    "longitude_user": -47.86952,
    "name": "Sabor do Sul",
    "lactose_rest": false,
    "gluten_rest": false,
    "vegetariano_rest": true,
    "porco_rest": true,
    "lactose_user": false,
    "gluten_user": false,
    "vegetariano_user": true,
    "porco_user": true,
    "cardapio": "http",
    "recomendado": false
  },
  {
    "id": "23",
    "latitude_rest": "-15.848049",
    "longitude_rest": "-47.950081 ",
    "latitude_user": -15.87397,
    "longitude_user": -47.86952,
    "name": "Comida Vegana",
    "lactose_rest": true,
    "gluten_rest": false,
    "vegetariano_rest": false,
    "porco_rest": false,
    "lactose_user": true,
    "gluten_user": false,
    "vegetariano_user": false,
    "porco_user": false,
    "cardapio": "http",
    "recomendado": false
  },
  {
    "id": "24",
    "latitude_rest": "-15.840284",
    "longitude_rest": "-47.965946 ",
    "latitude_user": -15.87397,
    "longitude_user": -47.86952,
    "name": "Restaurante da Praia",
    "lactose_rest": true,
    "gluten_rest": false,
    "vegetariano_rest": true,
    "porco_rest": true,
    "lactose_user": true,
    "gluten_user": false,
    "vegetariano_user": true,
    "porco_user": true,
    "cardapio": "http",
    "recomendado": false
  },
  {
    "id": "25",
    "latitude_rest": "-15.967814",
    "longitude_rest": "-48.045202 ",
    "latitude_user": -15.87397,
    "longitude_user": -47.86952,
    "name": "Cozinha Contemporânea",
    "lactose_rest": true,
    "gluten_rest": false,
    "vegetariano_rest": false,
    "porco_rest": true,
    "lactose_user": true,
    "gluten_user": false,
    "vegetariano_user": false,
    "porco_user": true,
    "cardapio": "http",
    "recomendado": false
  },
  {
    "id": "26",
    "latitude_rest": "-16.018858",
    "longitude_rest": "-48.067951 ",
    "latitude_user": -15.87397,
    "longitude_user": -47.86952,
    "name": "Sabores da Serra",
    "lactose_rest": true,
    "gluten_rest": false,
    "vegetariano_rest": true,
    "porco_rest": true,
    "lactose_user": true,
    "gluten_user": false,
    "vegetariano_user": true,
    "porco_user": true,
    "cardapio": "http",
    "recomendado": false
  },
  {
    "id": "27",
    "latitude_rest": "-15.830898",
    "longitude_rest": "-48.089332 ",
    "latitude_user": -15.87397,
    "longitude_user": -47.86952,
    "name": "Cozinha Tailandesa",
    "lactose_rest": true,
    "gluten_rest": false,
    "vegetariano_rest": true,
    "porco_rest": true,
    "lactose_user": true,
    "gluten_user": false,
    "vegetariano_user": true,
    "porco_user": true,
    "cardapio": "http",
    "recomendado": false
  },
  {
    "id": "28",
    "latitude_rest": "-15.617969",
    "longitude_rest": "-47.637387 ",
    "latitude_user": -15.87397,
    "longitude_user": -47.86952,
    "name": "Pratos com Frutos do Mar",
    "lactose_rest": false,
    "gluten_rest": false,
    "vegetariano_rest": true,
    "porco_rest": true,
    "lactose_user": false,
    "gluten_user": false,
    "vegetariano_user": true,
    "porco_user": true,
    "cardapio": "http",
    "recomendado": false
  },
  {
    "id": "29",
    "latitude_rest": "-15.649036",
    "longitude_rest": "-47.829671 ",
    "latitude_user": -15.87397,
    "longitude_user": -47.86952,
    "name": "Restaurante Mediterrâneo",
    "lactose_rest": true,
    "gluten_rest": false,
    "vegetariano_rest": true,
    "porco_rest": true,
    "lactose_user": true,
    "gluten_user": false,
    "vegetariano_user": true,
    "porco_user": true,
    "cardapio": "http",
    "recomendado": false
  },
  {
    "id": "30",
    "latitude_rest": "-15.453699",
    "longitude_rest": "-47.608917 ",
    "latitude_user": -15.87397,
    "longitude_user": -47.86952,
    "name": "Sabor Mexicano",
    "lactose_rest": true,
    "gluten_rest": false,
    "vegetariano_rest": false,
    "porco_rest": true,
    "lactose_user": true,
    "gluten_user": false,
    "vegetariano_user": false,
    "porco_user": true,
    "cardapio": "http",
    "recomendado": false
  },
  {
    "id": "31",
    "latitude_rest": "-15.879470",
    "longitude_rest": "-48.114328 ",
    "latitude_user": -15.87397,
    "longitude_user": -47.86952,
    "name": "Comida Japonesa",
    "lactose_rest": true,
    "gluten_rest": false,
    "vegetariano_rest": false,
    "porco_rest": true,
    "lactose_user": true,
    "gluten_user": false,
    "vegetariano_user": false,
    "porco_user": true,
    "cardapio": "http",
    "recomendado": true
  },
  {
    "id": "32",
    "latitude_rest": "-15.817796",
    "longitude_rest": "-47.812026 ",
    "latitude_user": -15.87397,
    "longitude_user": -47.86952,
    "name": "Restaurante da Fazenda",
    "lactose_rest": true,
    "gluten_rest": false,
    "vegetariano_rest": true,
    "porco_rest": true,
    "lactose_user": true,
    "gluten_user": false,
    "vegetariano_user": true,
    "porco_user": true,
    "cardapio": "http",
    "recomendado": false
  },
  {
    "id": "33",
    "latitude_rest": "-15.885934",
    "longitude_rest": "-48.094700 ",
    "latitude_user": -15.87397,
    "longitude_user": -47.86952,
    "name": "Cozinha Italiana",
    "lactose_rest": true,
    "gluten_rest": false,
    "vegetariano_rest": true,
    "porco_rest": true,
    "lactose_user": true,
    "gluten_user": false,
    "vegetariano_user": true,
    "porco_user": true,
    "cardapio": "http",
    "recomendado": true
  },
  {
    "id": "34",
    "latitude_rest": "-15.745664",
    "longitude_rest": "-47.884114 ",
    "latitude_user": -15.87397,
    "longitude_user": -47.86952,
    "name": "Sabores da Índia",
    "lactose_rest": false,
    "gluten_rest": true,
    "vegetariano_rest": true,
    "porco_rest": true,
    "lactose_user": false,
    "gluten_user": true,
    "vegetariano_user": true,
    "porco_user": true,
    "cardapio": "http",
    "recomendado": false
  },
  {
    "id": "35",
    "latitude_rest": "-15.918075",
    "longitude_rest": "-48.100891 ",
    "latitude_user": -15.87397,
    "longitude_user": -47.86952,
    "name": "Comida Típica do Cerrado",
    "lactose_rest": true,
    "gluten_rest": false,
    "vegetariano_rest": false,
    "porco_rest": true,
    "lactose_user": true,
    "gluten_user": false,
    "vegetariano_user": false,
    "porco_user": true,
    "cardapio": "http",
    "recomendado": false
  },
  {
    "id": "36",
    "latitude_rest": "-15.708744",
    "longitude_rest": "-47.914304 ",
    "latitude_user": -15.87397,
    "longitude_user": -47.86952,
    "name": "Restaurante da Montanha",
    "lactose_rest": false,
    "gluten_rest": true,
    "vegetariano_rest": false,
    "porco_rest": true,
    "lactose_user": false,
    "gluten_user": true,
    "vegetariano_user": false,
    "porco_user": true,
    "cardapio": "http",
    "recomendado": false
  },
  {
    "id": "37",
    "latitude_rest": "-15.782535",
    "longitude_rest": "-48.000297 ",
    "latitude_user": -15.87397,
    "longitude_user": -47.86952,
    "name": "Cozinha Francesa",
    "lactose_rest": true,
    "gluten_rest": false,
    "vegetariano_rest": true,
    "porco_rest": false,
    "lactose_user": true,
    "gluten_user": false,
    "vegetariano_user": true,
    "porco_user": false,
    "cardapio": "http",
    "recomendado": false
  },
  {
    "id": "38",
    "latitude_rest": "-15.743945",
    "longitude_rest": "-47.850834 ",
    "latitude_user": -15.87397,
    "longitude_user": -47.86952,
    "name": "Pratos Especiais",
    "lactose_rest": false,
    "gluten_rest": false,
    "vegetariano_rest": true,
    "porco_rest": true,
    "lactose_user": false,
    "gluten_user": false,
    "vegetariano_user": true,
    "porco_user": true,
    "cardapio": "http",
    "recomendado": false
  },
  {
    "id": "39",
    "latitude_rest": "-15.782792",
    "longitude_rest": "-47.988694 ",
    "latitude_user": -15.87397,
    "longitude_user": -47.86952,
    "name": "Sabor do Caribe",
    "lactose_rest": true,
    "gluten_rest": false,
    "vegetariano_rest": false,
    "porco_rest": true,
    "lactose_user": true,
    "gluten_user": false,
    "vegetariano_user": false,
    "porco_user": true,
    "cardapio": "http",
    "recomendado": false
  },
  {
    "id": "40",
    "latitude_rest": "-15.774943",
    "longitude_rest": "-47.890336 ",
    "latitude_user": -15.87397,
    "longitude_user": -47.86952,
    "name": "Restaurante do Campo",
    "lactose_rest": true,
    "gluten_rest": false,
    "vegetariano_rest": true,
    "porco_rest": true,
    "lactose_user": true,
    "gluten_user": false,
    "vegetariano_user": true,
    "porco_user": true,
    "cardapio": "http",
    "recomendado": false
  },
  {
    "id": "41",
    "latitude_rest": "-15.948442",
    "longitude_rest": "-48.032996 ",
    "latitude_user": -15.87397,
    "longitude_user": -47.86952,
    "name": "Cozinha Portuguesa",
    "lactose_rest": true,
    "gluten_rest": false,
    "vegetariano_rest": true,
    "porco_rest": true,
    "lactose_user": true,
    "gluten_user": false,
    "vegetariano_user": true,
    "porco_user": true,
    "cardapio": "http",
    "recomendado": false
  },
  {
    "id": "42",
    "latitude_rest": "-15.885366",
    "longitude_rest": "-48.132154 ",
    "latitude_user": -15.87397,
    "longitude_user": -47.86952,
    "name": "Sabores de Minas",
    "lactose_rest": false,
    "gluten_rest": false,
    "vegetariano_rest": false,
    "porco_rest": true,
    "lactose_user": false,
    "gluten_user": false,
    "vegetariano_user": false,
    "porco_user": true,
    "cardapio": "http",
    "recomendado": false
  },
  {
    "id": "43",
    "latitude_rest": "-15.742948",
    "longitude_rest": "-47.912918 ",
    "latitude_user": -15.87397,
    "longitude_user": -47.86952,
    "name": "Comida Oriental",
    "lactose_rest": true,
    "gluten_rest": false,
    "vegetariano_rest": false,
    "porco_rest": true,
    "lactose_user": true,
    "gluten_user": false,
    "vegetariano_user": false,
    "porco_user": true,
    "cardapio": "http",
    "recomendado": false
  },
  {
    "id": "44",
    "latitude_rest": "-15.879224",
    "longitude_rest": "-48.059648 ",
    "latitude_user": -15.87397,
    "longitude_user": -47.86952,
    "name": "Restaurante do Lago",
    "lactose_rest": false,
    "gluten_rest": false,
    "vegetariano_rest": false,
    "porco_rest": true,
    "lactose_user": false,
    "gluten_user": false,
    "vegetariano_user": false,
    "porco_user": true,
    "cardapio": "http",
    "recomendado": false
  },
  {
    "id": "45",
    "latitude_rest": "-15.889342",
    "longitude_rest": "-48.021219 ",
    "latitude_user": -15.87397,
    "longitude_user": -47.86952,
    "name": "Cozinha Alemã",
    "lactose_rest": true,
    "gluten_rest": false,
    "vegetariano_rest": true,
    "porco_rest": true,
    "lactose_user": true,
    "gluten_user": false,
    "vegetariano_user": true,
    "porco_user": true,
    "cardapio": "http",
    "recomendado": false
  },
  {
    "id": "46",
    "latitude_rest": "-15.775526",
    "longitude_rest": "-47.885410 ",
    "latitude_user": -15.87397,
    "longitude_user": -47.86952,
    "name": "Sabor Árabe",
    "lactose_rest": false,
    "gluten_rest": false,
    "vegetariano_rest": true,
    "porco_rest": true,
    "lactose_user": false,
    "gluten_user": false,
    "vegetariano_user": true,
    "porco_user": true,
    "cardapio": "http",
    "recomendado": false
  },
  {
    "id": "47",
    "latitude_rest": "-15.818328",
    "longitude_rest": "-47.983265 ",
    "latitude_user": -15.87397,
    "longitude_user": -47.86952,
    "name": "Pratos Gourmet",
    "lactose_rest": true,
    "gluten_rest": false,
    "vegetariano_rest": true,
    "porco_rest": true,
    "lactose_user": true,
    "gluten_user": false,
    "vegetariano_user": true,
    "porco_user": true,
    "cardapio": "http",
    "recomendado": false
  },
  {
    "id": "48",
    "latitude_rest": "-15.804399",
    "longitude_rest": "-48.017441 ",
    "latitude_user": -15.87397,
    "longitude_user": -47.86952,
    "name": "Restaurante do Bosque",
    "lactose_rest": true,
    "gluten_rest": false,
    "vegetariano_rest": true,
    "porco_rest": true,
    "lactose_user": true,
    "gluten_user": false,
    "vegetariano_user": true,
    "porco_user": true,
    "cardapio": "http",
    "recomendado": false
  },
  {
    "id": "49",
    "latitude_rest": "-15.809017",
    "longitude_rest": "-47.985582 ",
    "latitude_user": -15.87397,
    "longitude_user": -47.86952,
    "name": "Comida Chinesa",
    "lactose_rest": false,
    "gluten_rest": false,
    "vegetariano_rest": false,
    "porco_rest": false,
    "lactose_user": false,
    "gluten_user": false,
    "vegetariano_user": false,
    "porco_user": false,
    "cardapio": "http",
    "recomendado": false
  },
  {
    "id": "50",
    "latitude_rest": "-15.856689",
    "longitude_rest": "-48.119546 ",
    "latitude_user": -15.87397,
    "longitude_user": -47.86952,
    "name": "Sabores da Amazônia",
    "lactose_rest": false,
    "gluten_rest": false,
    "vegetariano_rest": false,
    "porco_rest": true,
    "lactose_user": false,
    "gluten_user": false,
    "vegetariano_user": false,
    "porco_user": true,
    "cardapio": "http",
    "recomendado": false
  },
  {
    "id": "51",
    "latitude_rest": "-15.906102",
    "longitude_rest": "-47.922988 ",
    "latitude_user": -15.87397,
    "longitude_user": -47.86952,
    "name": "Cozinha do Mar",
    "lactose_rest": true,
    "gluten_rest": false,
    "vegetariano_rest": true,
    "porco_rest": false,
    "lactose_user": true,
    "gluten_user": false,
    "vegetariano_user": true,
    "porco_user": false,
    "cardapio": "http",
    "recomendado": false
  },
  {
    "id": "52",
    "latitude_rest": "-16.035683",
    "longitude_rest": "-48.024648 ",
    "latitude_user": -15.87397,
    "longitude_user": -47.86952,
    "name": "Sabor Italiano",
    "lactose_rest": true,
    "gluten_rest": false,
    "vegetariano_rest": false,
    "porco_rest": true,
    "lactose_user": true,
    "gluten_user": false,
    "vegetariano_user": false,
    "porco_user": true,
    "cardapio": "http",
    "recomendado": false
  },
  {
    "id": "53",
    "latitude_rest": "-15.757286",
    "longitude_rest": "-47.883357 ",
    "latitude_user": -15.87397,
    "longitude_user": -47.86952,
    "name": "Restaurante dos Sabores",
    "lactose_rest": false,
    "gluten_rest": true,
    "vegetariano_rest": false,
    "porco_rest": true,
    "lactose_user": false,
    "gluten_user": true,
    "vegetariano_user": false,
    "porco_user": true,
    "cardapio": "http",
    "recomendado": false
  },
  {
    "id": "54",
    "latitude_rest": "-15.753989",
    "longitude_rest": "-47.880708 ",
    "latitude_user": -15.87397,
    "longitude_user": -47.86952,
    "name": "Comida Peruana",
    "lactose_rest": true,
    "gluten_rest": false,
    "vegetariano_rest": true,
    "porco_rest": true,
    "lactose_user": true,
    "gluten_user": false,
    "vegetariano_user": true,
    "porco_user": true,
    "cardapio": "http",
    "recomendado": false
  },
  {
    "id": "55",
    "latitude_rest": "-16.006284",
    "longitude_rest": "-47.987307 ",
    "latitude_user": -15.87397,
    "longitude_user": -47.86952,
    "name": "Refeições Caseiras",
    "lactose_rest": true,
    "gluten_rest": false,
    "vegetariano_rest": false,
    "porco_rest": true,
    "lactose_user": true,
    "gluten_user": false,
    "vegetariano_user": false,
    "porco_user": true,
    "cardapio": "http",
    "recomendado": false
  },
  {
    "id": "56",
    "latitude_rest": "-15.453699",
    "longitude_rest": "-47.608917 ",
    "latitude_user": -15.87397,
    "longitude_user": -47.86952,
    "name": "Cozinha Gourmet",
    "lactose_rest": true,
    "gluten_rest": false,
    "vegetariano_rest": false,
    "porco_rest": true,
    "lactose_user": true,
    "gluten_user": false,
    "vegetariano_user": false,
    "porco_user": true,
    "cardapio": "http",
    "recomendado": false
  },
  {
    "id": "57",
    "latitude_rest": "-15.806447",
    "longitude_rest": "-48.133172 ",
    "latitude_user": -15.87397,
    "longitude_user": -47.86952,
    "name": "Sabor dos Andes",
    "lactose_rest": true,
    "gluten_rest": false,
    "vegetariano_rest": true,
    "porco_rest": true,
    "lactose_user": true,
    "gluten_user": false,
    "vegetariano_user": true,
    "porco_user": true,
    "cardapio": "http",
    "recomendado": false
  },
  {
    "id": "58",
    "latitude_rest": "-15.869336",
    "longitude_rest": "-48.001015 ",
    "latitude_user": -15.87397,
    "longitude_user": -47.86952,
    "name": "Restaurante da Natureza",
    "lactose_rest": true,
    "gluten_rest": false,
    "vegetariano_rest": true,
    "porco_rest": true,
    "lactose_user": true,
    "gluten_user": false,
    "vegetariano_user": true,
    "porco_user": true,
    "cardapio": "http",
    "recomendado": false
  },
  {
    "id": "59",
    "latitude_rest": "-15.937175",
    "longitude_rest": "-48.231192 ",
    "latitude_user": -15.87397,
    "longitude_user": -47.86952,
    "name": "Comida Tradicional",
    "lactose_rest": true,
    "gluten_rest": false,
    "vegetariano_rest": true,
    "porco_rest": true,
    "lactose_user": true,
    "gluten_user": false,
    "vegetariano_user": true,
    "porco_user": true,
    "cardapio": "http",
    "recomendado": true
  },
  {
    "id": "60",
    "latitude_rest": "-15.997485",
    "longitude_rest": "-47.999198 ",
    "latitude_user": -15.87397,
    "longitude_user": -47.86952,
    "name": "Sabores do Mediterrâneo",
    "lactose_rest": false,
    "gluten_rest": false,
    "vegetariano_rest": true,
    "porco_rest": true,
    "lactose_user": false,
    "gluten_user": false,
    "vegetariano_user": true,
    "porco_user": true,
    "cardapio": "http",
    "recomendado": true
  },
  {
    "id": "61",
    "latitude_rest": "-15.839432",
    "longitude_rest": "-48.104506 ",
    "latitude_user": -15.87397,
    "longitude_user": -47.86952,
    "name": "Grelhados da Fazenda",
    "lactose_rest": true,
    "gluten_rest": true,
    "vegetariano_rest": false,
    "porco_rest": true,
    "lactose_user": true,
    "gluten_user": true,
    "vegetariano_user": false,
    "porco_user": true,
    "cardapio": "http",
    "recomendado": false
  },
  {
    "id": "62",
    "latitude_rest": "-15.669563",
    "longitude_rest": "-48.199558 ",
    "latitude_user": -15.87397,
    "longitude_user": -47.86952,
    "name": "Cozinha Espanhola",
    "lactose_rest": true,
    "gluten_rest": false,
    "vegetariano_rest": false,
    "porco_rest": true,
    "lactose_user": true,
    "gluten_user": false,
    "vegetariano_user": false,
    "porco_user": true,
    "cardapio": "http",
    "recomendado": true
  },
  {
    "id": "63",
    "latitude_rest": "-15.940308",
    "longitude_rest": "-48.238258 ",
    "latitude_user": -15.87397,
    "longitude_user": -47.86952,
    "name": "Restaurante Vegetariano",
    "lactose_rest": false,
    "gluten_rest": false,
    "vegetariano_rest": false,
    "porco_rest": true,
    "lactose_user": false,
    "gluten_user": false,
    "vegetariano_user": false,
    "porco_user": true,
    "cardapio": "http",
    "recomendado": true
  },
  {
    "id": "64",
    "latitude_rest": "-15.844371",
    "longitude_rest": "-47.804553 ",
    "latitude_user": -15.87397,
    "longitude_user": -47.86952,
    "name": "Delícias do Interior",
    "lactose_rest": true,
    "gluten_rest": false,
    "vegetariano_rest": false,
    "porco_rest": true,
    "lactose_user": true,
    "gluten_user": false,
    "vegetariano_user": false,
    "porco_user": true,
    "cardapio": "http",
    "recomendado": false
  },
  {
    "id": "65",
    "latitude_rest": "-15.865848",
    "longitude_rest": "-48.092989 ",
    "latitude_user": -15.87397,
    "longitude_user": -47.86952,
    "name": "Sabor do Cerrado",
    "lactose_rest": false,
    "gluten_rest": false,
    "vegetariano_rest": false,
    "porco_rest": true,
    "lactose_user": false,
    "gluten_user": false,
    "vegetariano_user": false,
    "porco_user": true,
    "cardapio": "http",
    "recomendado": true
  },
  {
    "id": "66",
    "latitude_rest": "-15.880587",
    "longitude_rest": "-48.093338 ",
    "latitude_user": -15.87397,
    "longitude_user": -47.86952,
    "name": "Pratos do Mundo",
    "lactose_rest": false,
    "gluten_rest": false,
    "vegetariano_rest": false,
    "porco_rest": true,
    "lactose_user": false,
    "gluten_user": false,
    "vegetariano_user": false,
    "porco_user": true,
    "cardapio": "http",
    "recomendado": false
  },
  {
    "id": "67",
    "latitude_rest": "-15.921507",
    "longitude_rest": "-48.105045 ",
    "latitude_user": -15.87397,
    "longitude_user": -47.86952,
    "name": "Comida Mexicana",
    "lactose_rest": false,
    "gluten_rest": true,
    "vegetariano_rest": false,
    "porco_rest": true,
    "lactose_user": false,
    "gluten_user": true,
    "vegetariano_user": false,
    "porco_user": true,
    "cardapio": "http",
    "recomendado": false
  },
  {
    "id": "68",
    "latitude_rest": "-15.813211",
    "longitude_rest": "-48.130928 ",
    "latitude_user": -15.87397,
    "longitude_user": -47.86952,
    "name": "Restaurante Oriental",
    "lactose_rest": true,
    "gluten_rest": false,
    "vegetariano_rest": true,
    "porco_rest": true,
    "lactose_user": true,
    "gluten_user": false,
    "vegetariano_user": true,
    "porco_user": true,
    "cardapio": "http",
    "recomendado": false
  },
  {
    "id": "69",
    "latitude_rest": "-15.858352",
    "longitude_rest": "-48.084097 ",
    "latitude_user": -15.87397,
    "longitude_user": -47.86952,
    "name": "Cozinha Regional",
    "lactose_rest": true,
    "gluten_rest": false,
    "vegetariano_rest": true,
    "porco_rest": true,
    "lactose_user": true,
    "gluten_user": false,
    "vegetariano_user": true,
    "porco_user": true,
    "cardapio": "http",
    "recomendado": false
  },
  {
    "id": "70",
    "latitude_rest": "-15.744411",
    "longitude_rest": "-47.767456 ",
    "latitude_user": -15.87397,
    "longitude_user": -47.86952,
    "name": "Sabores do Litoral",
    "lactose_rest": false,
    "gluten_rest": false,
    "vegetariano_rest": false,
    "porco_rest": true,
    "lactose_user": false,
    "gluten_user": false,
    "vegetariano_user": false,
    "porco_user": true,
    "cardapio": "http",
    "recomendado": false
  },
  {
    "id": "71",
    "latitude_rest": "-15.801141",
    "longitude_rest": "-47.926500 ",
    "latitude_user": -15.87397,
    "longitude_user": -47.86952,
    "name": "Comida Árabe",
    "lactose_rest": false,
    "gluten_rest": false,
    "vegetariano_rest": true,
    "porco_rest": true,
    "lactose_user": false,
    "gluten_user": false,
    "vegetariano_user": true,
    "porco_user": true,
    "cardapio": "http",
    "recomendado": false
  },
  {
    "id": "72",
    "latitude_rest": "-15.803623",
    "longitude_rest": "-47.927958 ",
    "latitude_user": -15.87397,
    "longitude_user": -47.86952,
    "name": "Restaurante do Pátio",
    "lactose_rest": true,
    "gluten_rest": false,
    "vegetariano_rest": true,
    "porco_rest": true,
    "lactose_user": true,
    "gluten_user": false,
    "vegetariano_user": true,
    "porco_user": true,
    "cardapio": "http",
    "recomendado": false
  },
  {
    "id": "73",
    "latitude_rest": "-15.875632",
    "longitude_rest": "-47.766428 ",
    "latitude_user": -15.87397,
    "longitude_user": -47.86952,
    "name": "Cozinha Mexicana",
    "lactose_rest": false,
    "gluten_rest": false,
    "vegetariano_rest": false,
    "porco_rest": true,
    "lactose_user": false,
    "gluten_user": false,
    "vegetariano_user": false,
    "porco_user": true,
    "cardapio": "http",
    "recomendado": false
  },
  {
    "id": "74",
    "latitude_rest": "-15.770268",
    "longitude_rest": "-47.778158 ",
    "latitude_user": -15.87397,
    "longitude_user": -47.86952,
    "name": "Sabor Nordestino",
    "lactose_rest": true,
    "gluten_rest": false,
    "vegetariano_rest": true,
    "porco_rest": true,
    "lactose_user": true,
    "gluten_user": false,
    "vegetariano_user": true,
    "porco_user": true,
    "cardapio": "http",
    "recomendado": false
  },
  {
    "id": "75",
    "latitude_rest": "-15.908651",
    "longitude_rest": "-47.757378 ",
    "latitude_user": -15.87397,
    "longitude_user": -47.86952,
    "name": "Pratos Especiais do Chef",
    "lactose_rest": true,
    "gluten_rest": false,
    "vegetariano_rest": false,
    "porco_rest": true,
    "lactose_user": true,
    "gluten_user": false,
    "vegetariano_user": false,
    "porco_user": true,
    "cardapio": "http",
    "recomendado": false
  },
  {
    "id": "76",
    "latitude_rest": "-15.902568",
    "longitude_rest": "-47.771357 ",
    "latitude_user": -15.87397,
    "longitude_user": -47.86952,
    "name": "Comida Portuguesa",
    "lactose_rest": true,
    "gluten_rest": false,
    "vegetariano_rest": true,
    "porco_rest": true,
    "lactose_user": true,
    "gluten_user": false,
    "vegetariano_user": true,
    "porco_user": true,
    "cardapio": "http",
    "recomendado": false
  },
  {
    "id": "77",
    "latitude_rest": "-15.801687",
    "longitude_rest": "-48.136774 ",
    "latitude_user": -15.87397,
    "longitude_user": -47.86952,
    "name": "Restaurante do Sítio",
    "lactose_rest": true,
    "gluten_rest": false,
    "vegetariano_rest": false,
    "porco_rest": true,
    "lactose_user": true,
    "gluten_user": false,
    "vegetariano_user": false,
    "porco_user": true,
    "cardapio": "http",
    "recomendado": false
  },
  {
    "id": "78",
    "latitude_rest": "-15.805919",
    "longitude_rest": "-48.059373 ",
    "latitude_user": -15.87397,
    "longitude_user": -47.86952,
    "name": "Cozinha do Chef",
    "lactose_rest": true,
    "gluten_rest": false,
    "vegetariano_rest": false,
    "porco_rest": true,
    "lactose_user": true,
    "gluten_user": false,
    "vegetariano_user": false,
    "porco_user": true,
    "cardapio": "http",
    "recomendado": false
  },
  {
    "id": "79",
    "latitude_rest": "-15.665268",
    "longitude_rest": "-48.193809 ",
    "latitude_user": -15.87397,
    "longitude_user": -47.86952,
    "name": "Sabores da França",
    "lactose_rest": false,
    "gluten_rest": false,
    "vegetariano_rest": true,
    "porco_rest": true,
    "lactose_user": false,
    "gluten_user": false,
    "vegetariano_user": true,
    "porco_user": true,
    "cardapio": "http",
    "recomendado": false
  },
  {
    "id": "80",
    "latitude_rest": "-15.820354",
    "longitude_rest": "-48.122930 ",
    "latitude_user": -15.87397,
    "longitude_user": -47.86952,
    "name": "Restaurante do Vinho",
    "lactose_rest": false,
    "gluten_rest": true,
    "vegetariano_rest": false,
    "porco_rest": true,
    "lactose_user": false,
    "gluten_user": true,
    "vegetariano_user": false,
    "porco_user": true,
    "cardapio": "http",
    "recomendado": true
  },
  {
    "id": "81",
    "latitude_rest": "-15.817417",
    "longitude_rest": "-48.119307 ",
    "latitude_user": -15.87397,
    "longitude_user": -47.86952,
    "name": "Comida Ecológica",
    "lactose_rest": false,
    "gluten_rest": true,
    "vegetariano_rest": false,
    "porco_rest": true,
    "lactose_user": false,
    "gluten_user": true,
    "vegetariano_user": false,
    "porco_user": true,
    "cardapio": "http",
    "recomendado": true
  },
  {
    "id": "82",
    "latitude_rest": "-15.874373",
    "longitude_rest": "-48.017039 ",
    "latitude_user": -15.87397,
    "longitude_user": -47.86952,
    "name": "Sabor do Campo",
    "lactose_rest": true,
    "gluten_rest": false,
    "vegetariano_rest": true,
    "porco_rest": true,
    "lactose_user": true,
    "gluten_user": false,
    "vegetariano_user": true,
    "porco_user": true,
    "cardapio": "http",
    "recomendado": false
  },
  {
    "id": "83",
    "latitude_rest": "-15.799158",
    "longitude_rest": "-48.060835 ",
    "latitude_user": -15.87397,
    "longitude_user": -47.86952,
    "name": "Cozinha Grega",
    "lactose_rest": true,
    "gluten_rest": false,
    "vegetariano_rest": true,
    "porco_rest": true,
    "lactose_user": true,
    "gluten_user": false,
    "vegetariano_user": true,
    "porco_user": true,
    "cardapio": "http",
    "recomendado": false
  },
  {
    "id": "84",
    "latitude_rest": "-15.820354",
    "longitude_rest": "-48.122930 ",
    "latitude_user": -15.87397,
    "longitude_user": -47.86952,
    "name": "Refeições Vegetarianas",
    "lactose_rest": true,
    "gluten_rest": false,
    "vegetariano_rest": true,
    "porco_rest": true,
    "lactose_user": true,
    "gluten_user": false,
    "vegetariano_user": true,
    "porco_user": true,
    "cardapio": "http",
    "recomendado": false
  },
  {
    "id": "85",
    "latitude_rest": "-15.798925",
    "longitude_rest": "-48.024402 ",
    "latitude_user": -15.87397,
    "longitude_user": -47.86952,
    "name": "Sabores do Japão",
    "lactose_rest": true,
    "gluten_rest": false,
    "vegetariano_rest": false,
    "porco_rest": true,
    "lactose_user": true,
    "gluten_user": false,
    "vegetariano_user": false,
    "porco_user": true,
    "cardapio": "http",
    "recomendado": false
  },
  {
    "id": "86",
    "latitude_rest": "-15.805803",
    "longitude_rest": "-48.152375 ",
    "latitude_user": -15.87397,
    "longitude_user": -47.86952,
    "name": "Comida Tailandesa",
    "lactose_rest": true,
    "gluten_rest": false,
    "vegetariano_rest": true,
    "porco_rest": false,
    "lactose_user": true,
    "gluten_user": false,
    "vegetariano_user": true,
    "porco_user": false,
    "cardapio": "http",
    "recomendado": false
  },
  {
    "id": "87",
    "latitude_rest": "-15.858943",
    "longitude_rest": "-48.036233 ",
    "latitude_user": -15.87397,
    "longitude_user": -47.86952,
    "name": "Restaurante da Praça",
    "lactose_rest": true,
    "gluten_rest": false,
    "vegetariano_rest": true,
    "porco_rest": true,
    "lactose_user": true,
    "gluten_user": false,
    "vegetariano_user": true,
    "porco_user": true,
    "cardapio": "http",
    "recomendado": false
  },
  {
    "id": "88",
    "latitude_rest": "-15.650702",
    "longitude_rest": "-47.821852 ",
    "latitude_user": -15.87397,
    "longitude_user": -47.86952,
    "name": "Cozinha Mediterrânea",
    "lactose_rest": true,
    "gluten_rest": false,
    "vegetariano_rest": false,
    "porco_rest": true,
    "lactose_user": true,
    "gluten_user": false,
    "vegetariano_user": false,
    "porco_user": true,
    "cardapio": "http",
    "recomendado": false
  },
  {
    "id": "89",
    "latitude_rest": "-15.645183",
    "longitude_rest": "-47.822759 ",
    "latitude_user": -15.87397,
    "longitude_user": -47.86952,
    "name": "Sabor das Montanhas",
    "lactose_rest": true,
    "gluten_rest": true,
    "vegetariano_rest": false,
    "porco_rest": true,
    "lactose_user": true,
    "gluten_user": true,
    "vegetariano_user": false,
    "porco_user": true,
    "cardapio": "http",
    "recomendado": false
  },
  {
    "id": "90",
    "latitude_rest": "-15.806947",
    "longitude_rest": "-48.156014 ",
    "latitude_user": -15.87397,
    "longitude_user": -47.86952,
    "name": "Pratos Leves",
    "lactose_rest": true,
    "gluten_rest": false,
    "vegetariano_rest": true,
    "porco_rest": true,
    "lactose_user": true,
    "gluten_user": false,
    "vegetariano_user": true,
    "porco_user": true,
    "cardapio": "http",
    "recomendado": true
  },
  {
    "id": "91",
    "latitude_rest": "-15.820354",
    "longitude_rest": "-48.122930 ",
    "latitude_user": -15.87397,
    "longitude_user": -47.86952,
    "name": "Comida Alemã",
    "lactose_rest": true,
    "gluten_rest": true,
    "vegetariano_rest": true,
    "porco_rest": true,
    "lactose_user": true,
    "gluten_user": true,
    "vegetariano_user": true,
    "porco_user": true,
    "cardapio": "http",
    "recomendado": true
  },
  {
    "id": "92",
    "latitude_rest": "-15.905865",
    "longitude_rest": "-48.048584 ",
    "latitude_user": -15.87397,
    "longitude_user": -47.86952,
    "name": "Restaurante do Vale",
    "lactose_rest": false,
    "gluten_rest": false,
    "vegetariano_rest": true,
    "porco_rest": false,
    "lactose_user": false,
    "gluten_user": false,
    "vegetariano_user": true,
    "porco_user": false,
    "cardapio": "http",
    "recomendado": true
  },
  {
    "id": "93",
    "latitude_rest": "-15.938453",
    "longitude_rest": "-48.039233 ",
    "latitude_user": -15.87397,
    "longitude_user": -47.86952,
    "name": "Cozinha Indiana",
    "lactose_rest": true,
    "gluten_rest": false,
    "vegetariano_rest": true,
    "porco_rest": true,
    "lactose_user": true,
    "gluten_user": false,
    "vegetariano_user": true,
    "porco_user": true,
    "cardapio": "http",
    "recomendado": false
  },
  {
    "id": "94",
    "latitude_rest": "-15.777153",
    "longitude_rest": "-47.904260 ",
    "latitude_user": -15.87397,
    "longitude_user": -47.86952,
    "name": "Sabores de Portugal",
    "lactose_rest": true,
    "gluten_rest": false,
    "vegetariano_rest": true,
    "porco_rest": true,
    "lactose_user": true,
    "gluten_user": false,
    "vegetariano_user": true,
    "porco_user": true,
    "cardapio": "http",
    "recomendado": false
  },
  {
    "id": "95",
    "latitude_rest": "-15.854248",
    "longitude_rest": "-47.950744 ",
    "latitude_user": -15.87397,
    "longitude_user": -47.86952,
    "name": "Refeições Saudáveis do Chef",
    "lactose_rest": true,
    "gluten_rest": false,
    "vegetariano_rest": false,
    "porco_rest": true,
    "lactose_user": true,
    "gluten_user": false,
    "vegetariano_user": false,
    "porco_user": true,
    "cardapio": "http",
    "recomendado": false
  },
  {
    "id": "96",
    "latitude_rest": "-15.821435",
    "longitude_rest": "-48.114201 ",
    "latitude_user": -15.87397,
    "longitude_user": -47.86952,
    "name": "Sabor da Grécia",
    "lactose_rest": true,
    "gluten_rest": false,
    "vegetariano_rest": false,
    "porco_rest": false,
    "lactose_user": true,
    "gluten_user": false,
    "vegetariano_user": false,
    "porco_user": false,
    "cardapio": "http",
    "recomendado": false
  },
  {
    "id": "97",
    "latitude_rest": "-15.826080",
    "longitude_rest": "-47.790890 ",
    "latitude_user": -15.87397,
    "longitude_user": -47.86952,
    "name": "Comida do Sertão",
    "lactose_rest": false,
    "gluten_rest": false,
    "vegetariano_rest": false,
    "porco_rest": true,
    "lactose_user": false,
    "gluten_user": false,
    "vegetariano_user": false,
    "porco_user": true,
    "cardapio": "http",
    "recomendado": false
  },
  {
    "id": "98",
    "latitude_rest": "-15.856689",
    "longitude_rest": "-48.119546 ",
    "latitude_user": -15.87397,
    "longitude_user": -47.86952,
    "name": "Restaurante do Riacho",
    "lactose_rest": true,
    "gluten_rest": false,
    "vegetariano_rest": true,
    "porco_rest": true,
    "lactose_user": true,
    "gluten_user": false,
    "vegetariano_user": true,
    "porco_user": true,
    "cardapio": "http",
    "recomendado": false
  },
  {
    "id": "99",
    "latitude_rest": "-15.710061",
    "longitude_rest": "-47.878134 ",
    "latitude_user": -15.87397,
    "longitude_user": -47.86952,
    "name": "Cozinha Peruana",
    "lactose_rest": true,
    "gluten_rest": false,
    "vegetariano_rest": true,
    "porco_rest": true,
    "lactose_user": true,
    "gluten_user": false,
    "vegetariano_user": true,
    "porco_user": true,
    "cardapio": "http",
    "recomendado": false
  },
  {
    "id": "100",
    "latitude_rest": "-15.590178",
    "longitude_rest": "-47.868472 ",
    "latitude_user": -15.87397,
    "longitude_user": -47.86952,
    "name": "Sabores Típicos do Brasil",
    "lactose_rest": false,
    "gluten_rest": false,
    "vegetariano_rest": true,
    "porco_rest": true,
    "lactose_user": false,
    "gluten_user": false,
    "vegetariano_user": true,
    "porco_user": true,
    "cardapio": "http",
    "recomendado": false
  }
]