[
    {
      "id": "1",
      "latitude": -15.87397,
      "longitude": -47.96952,
      "name": "Sabor e Arte",
      "lactose" : false,
      "gluten" : true,
      "vegetariano" : true,
      "porco" : false
    },
    {
      "id": "2",
      "latitude": -15.78322,
      "longitude": -47.87599,
      "name": "Alimentação Saudável",
      "lactose" : true,
      "gluten" : false,
      "vegetariano" : true,
      "porco" : false
    },
    {
      "id": "3",
      "latitude": -15.80847,
      "longitude": -47.99108,
      "name": "O Sabor do Norte",
      "lactose" : false,
      "gluten" : true,
      "vegetariano" : true,
      "porco" : false
      },
      {
      "id": "4",
      "latitude": -16.02345,
      "longitude": -48.05417,
      "name": "Restaurante do Chef",
      "lactose" : false,
      "gluten" : true,
      "vegetariano" : false,
      "porco" : false
      },
      {
      "id": "5",
      "latitude": -15.63628,
      "longitude": -47.67370,
      "name": "Delícias da Vovó",
      "lactose" : false,
      "gluten" : true,
      "vegetariano" : false,
      "porco" : false
      },
      {
      "id": "6",
      "latitude": -15.84503,
      "longitude": -48.12826,
      "name": "Comida Caseira",
      "lactose" : true,
      "gluten" : true,
      "vegetariano" : true,
      "porco" : true
      },
      {
      "id": "7",
      "latitude": -16.02735,
      "longitude": -48.03115,
      "name": "Estação do Sabor",
      "lactose" : true,
      "gluten" : true,
      "vegetariano" : true,
      "porco" : true
      },
      {
      "id": "8",
      "latitude": -15.63605,
      "longitude": -47.85435,
      "name": "Cozinha Criativa",
      "lactose" : false,
      "gluten" : true,
      "vegetariano" : true,
      "porco" : false
      },
      {
        "id": "9",
        "latitude": -17.63605,
        "longitude": -46.85435,
        "name": "Cozinha Criativas",
        "lactose" : false,
        "gluten" : true,
        "vegetariano" : true,
        "porco" : false
        }
    
  ]