[
  {
    "id": "1",
    "latitude_rest": -15.873971,
    "longitude_rest": -47.969526,
    "latitude_user": -15.87397,
    "longitude_user": -47.86952,
    "name": "Sabor e Arte",
    "lactose_rest": false,
    "gluten_rest": false,
    "vegetariano_rest": true,
    "porco_rest": true,
    "lactose_user": false,
    "gluten_user": false,
    "vegetariano_user": false,
    "porco_user": false,
    "cardapio": "http",
    "recomendado": true
  },
  {
    "id": "2",
    "latitude_rest": -15.783226,
    "longitude_rest": -47.875997,
    "latitude_user": -15.87397,
    "longitude_user": -47.86952,
    "name": "Alimentação Saudável",
    "lactose_rest": true,
    "gluten_rest": false,
    "vegetariano_rest": false,
    "porco_rest": true,
    "lactose_user": false,
    "gluten_user": false,
    "vegetariano_user": false,
    "porco_user": false,
    "cardapio": "http",
    "recomendado": true
  },
  {
    "id": "3",
    "latitude_rest": -15.808471,
    "longitude_rest": -47.991086,
    "latitude_user": -15.87397,
    "longitude_user": -47.86952,
    "name": "O Sabor do Norte",
    "lactose_rest": false,
    "gluten_rest": false,
    "vegetariano_rest": false,
    "porco_rest": true,
    "lactose_user": false,
    "gluten_user": false,
    "vegetariano_user": false,
    "porco_user": false,
    "cardapio": "http",
    "recomendado": true
  },
  {
    "id": "4",
    "latitude_rest": -16.023459,
    "longitude_rest": -48.054171,
    "latitude_user": -15.87397,
    "longitude_user": -47.86952,
    "name": "Restaurante do Chef",
    "lactose_rest": true,
    "gluten_rest": false,
    "vegetariano_rest": true,
    "porco_rest": true,
    "lactose_user": false,
    "gluten_user": false,
    "vegetariano_user": false,
    "porco_user": false,
    "cardapio": "http",
    "recomendado": true
  },
  {
    "id": "5",
    "latitude_rest": -15.636280,
    "longitude_rest": -47.673708,
    "latitude_user": -15.87397,
    "longitude_user": -47.86952,
    "name": "Delícias da Vovó",
    "lactose_rest": true,
    "gluten_rest": false,
    "vegetariano_rest": true,
    "porco_rest": false,
    "lactose_user": false,
    "gluten_user": false,
    "vegetariano_user": false,
    "porco_user": false,
    "cardapio": "http",
    "recomendado": true
  },
  {
    "id": "6",
    "latitude_rest": -15.845039,
    "longitude_rest": -48.128268,
    "latitude_user": -15.87397,
    "longitude_user": -47.86952,
    "name": "Comida Caseira",
    "lactose_rest": true,
    "gluten_rest": false,
    "vegetariano_rest": false,
    "porco_rest": true,
    "lactose_user": false,
    "gluten_user": false,
    "vegetariano_user": false,
    "porco_user": false,
    "cardapio": "http",
    "recomendado": true
  },
  {
    "id": "7",
    "latitude_rest": -16.027354,
    "longitude_rest": -48.031152,
    "latitude_user": -15.87397,
    "longitude_user": -47.86952,
    "name": "Estação do Sabor",
    "lactose_rest": true,
    "gluten_rest": false,
    "vegetariano_rest": true,
    "porco_rest": true,
    "lactose_user": false,
    "gluten_user": false,
    "vegetariano_user": false,
    "porco_user": false,
    "cardapio": "http",
    "recomendado": true
  },
  {
    "id": "8",
    "latitude_rest": -15.636059,
    "longitude_rest": -47.854356,
    "latitude_user": -15.87397,
    "longitude_user": -47.86952,
    "name": "Cozinha Criativa",
    "lactose_rest": false,
    "gluten_rest": false,
    "vegetariano_rest": true,
    "porco_rest": true,
    "lactose_user": false,
    "gluten_user": false,
    "vegetariano_user": false,
    "porco_user": false,
    "cardapio": "http",
    "recomendado": true
  },
  {
    "id": "9",
    "latitude_rest": -15.806064,
    "longitude_rest": -48.100280,
    "latitude_user": -15.87397,
    "longitude_user": -47.86952,
    "name": "Cantinho da Comida",
    "lactose_rest": true,
    "gluten_rest": false,
    "vegetariano_rest": false,
    "porco_rest": false,
    "lactose_user": false,
    "gluten_user": false,
    "vegetariano_user": false,
    "porco_user": false,
    "cardapio": "http",
    "recomendado": false
  },
  {
    "id": "10",
    "latitude_rest": -15.643451,
    "longitude_rest": -47.785067,
    "latitude_user": -15.87397,
    "longitude_user": -47.86952,
    "name": "Sabores da Terra",
    "lactose_rest": true,
    "gluten_rest": true,
    "vegetariano_rest": true,
    "porco_rest": true,
    "lactose_user": false,
    "gluten_user": false,
    "vegetariano_user": false,
    "porco_user": false,
    "cardapio": "http",
    "recomendado": false
  },
  {
    "id": "11",
    "latitude_rest": -15.672596,
    "longitude_rest": -47.648157,
    "latitude_user": -15.87397,
    "longitude_user": -47.86952,
    "name": "Gosto Brasileiro",
    "lactose_rest": false,
    "gluten_rest": false,
    "vegetariano_rest": false,
    "porco_rest": true,
    "lactose_user": false,
    "gluten_user": false,
    "vegetariano_user": false,
    "porco_user": false,
    "cardapio": "http",
    "recomendado": false
  },
  {
    "id": "12",
    "latitude_rest": -15.840657,
    "longitude_rest": -48.051966,
    "latitude_user": -15.87397,
    "longitude_user": -47.86952,
    "name": "Tempero da Casa",
    "lactose_rest": true,
    "gluten_rest": false,
    "vegetariano_rest": false,
    "porco_rest": true,
    "lactose_user": false,
    "gluten_user": false,
    "vegetariano_user": false,
    "porco_user": false,
    "cardapio": "http",
    "recomendado": false
  },
  {
    "id": "13",
    "latitude_rest": -16.012628,
    "longitude_rest": -48.068955,
    "latitude_user": -15.87397,
    "longitude_user": -47.86952,
    "name": "Refeições Saudáveis",
    "lactose_rest": true,
    "gluten_rest": false,
    "vegetariano_rest": true,
    "porco_rest": true,
    "lactose_user": false,
    "gluten_user": false,
    "vegetariano_user": false,
    "porco_user": false,
    "cardapio": "http",
    "recomendado": false
  },
  {
    "id": "14",
    "latitude_rest": -15.868329,
    "longitude_rest": -48.019655,
    "latitude_user": -15.87397,
    "longitude_user": -47.86952,
    "name": "Delícias do Mar",
    "lactose_rest": false,
    "gluten_rest": false,
    "vegetariano_rest": true,
    "porco_rest": true,
    "lactose_user": false,
    "gluten_user": false,
    "vegetariano_user": false,
    "porco_user": false,
    "cardapio": "http",
    "recomendado": false
  },
  {
    "id": "15",
    "latitude_rest": -16.026380,
    "longitude_rest": -48.053227,
    "latitude_user": -15.87397,
    "longitude_user": -47.86952,
    "name": "Restaurante Árabe",
    "lactose_rest": false,
    "gluten_rest": false,
    "vegetariano_rest": true,
    "porco_rest": true,
    "lactose_user": false,
    "gluten_user": false,
    "vegetariano_user": false,
    "porco_user": false,
    "cardapio": "http",
    "recomendado": false
  }

]